[
  {
    "name": "ITESM Puebla",
    "country": "México",
    "state": "Puebla",
    "address": "Atlixcáyotl 5718, Reserva Territorial Atlixcáyotl, 72453 Heroica Puebla de Zaragoza, Pue.",
    "location": "Heroica Puebla de Zaragoza, Puebla, México",
    "status": "Registrada con participantes"
  },
  {
    "name": "ITESM Guadalajara",
    "country": "México",
    "state": "Jalisco",
    "address": "Av. Gral Ramón Corona No 2514, Colonia Nuevo México, 45201 Zapopan, Jal.",
    "location": "Zapopan, Jalisco, México",
    "status": "Registrada con participantes"
  },
  {
    "name": "ITESM Querétaro",
    "country": "México",
    "state": "Querétaro",
    "address": "Epigmenio González 500, Fracc. San Pablo, 76130 Santiago de Querétaro, Qro.",
    "location": "Santiago de Querétaro, Querétaro, México",
    "status": "Registrada con participantes"
  },
  {
    "name": "Pontificia Universidad Católica de Chile",
    "country": "Chile",
    "state": "Santiago",
    "address": "Marcoleta 367, 8320165 Santiago, Región Metropolitana, Chile.",
    "location": "Santiago, Región Metropolitana, Chile",
    "status": "Registrada con participantes"
  },
  {
    "name": "MIT",
    "country": "Estados Unidos",
    "state": "Massachusetts",
    "address": "77 Massachusetts Ave, Cambridge, MA 02139, Estados Unidos",
    "location": "Cambridge, Massachusetts, Estados Unidos",
    "status": "Registrada con participantes"
  }
]

